{
"type": "FeatureCollection",
"name": "all_bank_branches",
"crs": { "type": "name", "properties": { "name": "urn:ogc:def:crs:EPSG::32644" } },
"features": [
{ "type": "Feature", "properties": { "fid": 1, "name": "City Union Bank", "lat": 12.9201976, "lng": 80.2001265, "pincode": 600100, "place_id": "ChIJ-zppYD1cUjoRUmJvMIyTt-o", "bank_name": "Union Bank of India", "branch_nam": "City Union Bank", "street_id": 318600021, "street_nam": "Pillayarkoil Street", "category": "Bank Branch" }, "geometry": { "type": "Point", "coordinates": [ 413230.443796477105934, 1428446.132789197377861 ] } },
{ "type": "Feature", "properties": { "fid": 2, "name": "City Union Bank Jalladiampet", "lat": 12.9202246, "lng": 80.2001864, "pincode": 600100, "place_id": "ChIJfV9EYD1cUjoR1D-PcLY9bdY", "bank_name": "Union Bank of India", "branch_nam": "City Union Bank Jalladiampet", "street_id": 318600021, "street_nam": "Pillayarkoil Street", "category": "Bank Branch" }, "geometry": { "type": "Point", "coordinates": [ 413236.951397795928642, 1428449.098578139906749 ] } },
{ "type": "Feature", "properties": { "fid": 3, "name": "HDFC BANK", "lat": 12.9204159, "lng": 80.2005901, "pincode": 600100, "place_id": "ChIJ3zp4Yz1cUjoR-TE4j8NoIcQ", "bank_name": "HDFC Bank", "branch_nam": "HDFC BANK", "street_id": 318600021, "street_nam": "Pillayarkoil Street", "category": "Bank Branch" }, "geometry": { "type": "Point", "coordinates": [ 413280.812987730139866, 1428470.118790466571227 ] } },
{ "type": "Feature", "properties": { "fid": 4, "name": "Karur Vysya Bank - Pallikaranai", "lat": 12.9280424, "lng": 80.2030256, "pincode": 600100, "place_id": "ChIJoymiXwldUjoRWgi4dVqjgFo", "bank_name": "Karur", "branch_nam": "Karur Vysya Bank - Pallikaranai", "street_id": 318600021, "street_nam": "Pillayarkoil Street", "category": "Bank Branch" }, "geometry": { "type": "Point", "coordinates": [ 413547.653305730898865, 1429312.750658417819068 ] } },
{ "type": "Feature", "properties": { "fid": 5, "name": "Axis Bank Branch", "lat": 12.928066, "lng": 80.199351, "pincode": 600100, "place_id": "ChIJl4gfFQVdUjoRqKTRzxAvHNc", "bank_name": "Axis Bank", "branch_nam": "Axis Bank Branch", "street_id": 208808689, "street_nam": "Viyasa Street", "category": "Bank Branch" }, "geometry": { "type": "Point", "coordinates": [ 413149.033248451538384, 1429316.604185434756801 ] } },
{ "type": "Feature", "properties": { "fid": 6, "name": "HDFC Bank", "lat": 12.9291569, "lng": 80.2029175, "pincode": 600100, "place_id": "ChIJFYfdNTpcUjoRpOPkq2THD88", "bank_name": "HDFC Bank", "branch_nam": "HDFC Bank", "street_id": 1410830834, "street_nam": "Velachery Mudhanmai Salai", "category": "Bank Branch" }, "geometry": { "type": "Point", "coordinates": [ 413536.310073153174017, 1429436.045646240469068 ] } },
{ "type": "Feature", "properties": { "fid": 7, "name": "ICICI Bank Pallikaranai", "lat": 12.929321, "lng": 80.2029528, "pincode": 600100, "place_id": "ChIJ5cjO0DRcUjoREWocPfM0rc0", "bank_name": "ICICI Bank", "branch_nam": "ICICI Bank Pallikaranai", "street_id": 1410830834, "street_nam": "Velachery Mudhanmai Salai", "category": "Bank Branch" }, "geometry": { "type": "Point", "coordinates": [ 413540.19596464181086, 1429454.182419400429353 ] } },
{ "type": "Feature", "properties": { "fid": 8, "name": "SBI Branch Tambaram Main Road Pallikaranai", "lat": 12.9297117, "lng": 80.2025697, "pincode": 600100, "place_id": "ChIJP4OFDd9dUjoRg2zC-7R1aKg", "bank_name": "State Bank of India", "branch_nam": "SBI Branch Tambaram Main Road Pallikaranai", "street_id": 179259799, "street_nam": "Velachery Mudhanmai Salai", "category": "Bank Branch" }, "geometry": { "type": "Point", "coordinates": [ 413498.771278696716763, 1429497.521415458293632 ] } },
{ "type": "Feature", "properties": { "fid": 9, "name": "UCO Bank", "lat": 12.9320749, "lng": 80.2034348, "pincode": 600100, "place_id": "ChIJXZGRpTBcUjoRC31IJBBPdjU", "bank_name": "UCO", "branch_nam": "UCO Bank", "street_id": 1473623047, "street_nam": "Velachery Mudhanmai Salai", "category": "Bank Branch" }, "geometry": { "type": "Point", "coordinates": [ 413593.431619281647727, 1429758.588182838167995 ] } },
{ "type": "Feature", "properties": { "fid": 10, "name": "Tamilnad Mercantile Bank (TMB) - Pallikaranai", "lat": 12.9340736, "lng": 80.2036787, "pincode": 600100, "place_id": "ChIJ7z2w0DBcUjoRLTMpcOtvMuk", "bank_name": "Tamilnad", "branch_nam": "Tamilnad Mercantile Bank (TMB) - Pallikaranai", "street_id": 179259799, "street_nam": "Velachery Mudhanmai Salai", "category": "Bank Branch" }, "geometry": { "type": "Point", "coordinates": [ 413620.577601336524822, 1429979.552780084544793 ] } },
{ "type": "Feature", "properties": { "fid": 11, "name": "City Union Bank Pallikaranai", "lat": 12.936079, "lng": 80.204694, "pincode": 600100, "place_id": "ChIJqVtjH61dUjoRghaHJ_rkOBE", "bank_name": "Union Bank of India", "branch_nam": "City Union Bank Pallikaranai", "street_id": 1232329871, "street_nam": "Velachery Mudhanmai Salai", "category": "Bank Branch" }, "geometry": { "type": "Point", "coordinates": [ 413731.405903076287359, 1430200.99823042191565 ] } },
{ "type": "Feature", "properties": { "fid": 12, "name": "Indian Overseas Bank", "lat": 12.938194, "lng": 80.205292, "pincode": 600100, "place_id": "ChIJvz0sFzRcUjoRoBlaRD_oxT0", "bank_name": "Indian Bank", "branch_nam": "Indian Overseas Bank", "street_id": 1232329871, "street_nam": "Velachery Mudhanmai Salai", "category": "Bank Branch" }, "geometry": { "type": "Point", "coordinates": [ 413797.002456357353367, 1430434.705854559550062 ] } },
{ "type": "Feature", "properties": { "fid": 13, "name": "Axis Bank Branch", "lat": 12.9418832, "lng": 80.210901, "pincode": 600100, "place_id": "ChIJbRxFTZFdUjoRDODYU4SltCg", "bank_name": "Axis Bank", "branch_nam": "Axis Bank Branch", "street_id": 82874901, "street_nam": "Kamakoti Nagar 1st Main Road", "category": "Bank Branch" }, "geometry": { "type": "Point", "coordinates": [ 414406.711265277583152, 1430840.830733552575111 ] } },
{ "type": "Feature", "properties": { "fid": 14, "name": "Jana Small Finance Bank Ltd.", "lat": 12.9419803, "lng": 80.2092232, "pincode": 600100, "place_id": "ChIJFeJXgxJdUjoRPftNbKZofJ4", "bank_name": "Jana", "branch_nam": "Jana Small Finance Bank Ltd.", "street_id": 82874901, "street_nam": "Kamakoti Nagar 1st Main Road", "category": "Bank Branch" }, "geometry": { "type": "Point", "coordinates": [ 414224.743634717888199, 1430852.131549537181854 ] } },
{ "type": "Feature", "properties": { "fid": 15, "name": "Kotak Mahindra Bank", "lat": 12.9423282, "lng": 80.2069487, "pincode": 600100, "place_id": "ChIJObubbO6rUzoRmmrs5B5fFbg", "bank_name": "Kotak Mahindra Bank", "branch_nam": "Kotak Mahindra Bank", "street_id": 1232329871, "street_nam": "Velachery Mudhanmai Salai", "category": "Bank Branch" }, "geometry": { "type": "Point", "coordinates": [ 413978.134524837369099, 1430891.371471015037969 ] } },
{ "type": "Feature", "properties": { "fid": 16, "name": "Federal Bank", "lat": 12.942381, "lng": 80.2074203, "pincode": 600100, "place_id": "ChIJzbYbC1VdUjoR_rKB83FHXuc", "bank_name": "Federal Bank", "branch_nam": "Federal Bank", "street_id": 384312605, "street_nam": "1st Cross Street", "category": "Bank Branch" }, "geometry": { "type": "Point", "coordinates": [ 414029.309782978729345, 1430897.052351414924487 ] } },
{ "type": "Feature", "properties": { "fid": 17, "name": "INSTANT MONEY TRANSFER POINT - SBI", "lat": 12.942493, "lng": 80.206665, "pincode": 600100, "place_id": "ChIJtSLM0DRcUjoR38fTr7LEras", "bank_name": "State Bank of India", "branch_nam": "INSTANT MONEY TRANSFER POINT - SBI", "street_id": 1228989443, "street_nam": "Velachery Mudhanmai Salai", "category": "Bank Branch" }, "geometry": { "type": "Point", "coordinates": [ 413947.416477270773612, 1430909.693010348360986 ] } },
{ "type": "Feature", "properties": { "fid": 18, "name": "IndusInd Bank", "lat": 12.9425336, "lng": 80.2076217, "pincode": 600100, "place_id": "ChIJRcicS8BdUjoRK0J12MYMmQg", "bank_name": "IndusInd Bank", "branch_nam": "IndusInd Bank", "street_id": 82874901, "street_nam": "Kamakoti Nagar 1st Main Road", "category": "Bank Branch" }, "geometry": { "type": "Point", "coordinates": [ 414051.209072035504505, 1430913.861515373224393 ] } },
{ "type": "Feature", "properties": { "fid": 19, "name": "Punjab National Bank", "lat": 12.9458675, "lng": 80.2086577, "pincode": 600100, "place_id": "ChIJlY45i8pdUjoRGkoiVHXKvys", "bank_name": "Punjab", "branch_nam": "Punjab National Bank", "street_id": 82881750, "street_nam": "Velachery Main Road", "category": "Bank Branch" }, "geometry": { "type": "Point", "coordinates": [ 414164.730640932684764, 1431282.227343349484727 ] } },
{ "type": "Feature", "properties": { "fid": 20, "name": "Axis Bank Branch", "lat": 12.9466558, "lng": 80.2323448, "pincode": 600097, "place_id": "ChIJV8GYGWFdUjoR49AIYiGi2Qo", "bank_name": "Axis Bank", "branch_nam": "Axis Bank Branch", "street_id": 184429525, "street_nam": "Pallavaram - Thoraipakkam Road", "category": "Bank Branch" }, "geometry": { "type": "Point", "coordinates": [ 416734.424692071042955, 1431361.5773522015661 ] } },
{ "type": "Feature", "properties": { "fid": 21, "name": "Axis Bank Branch", "lat": 12.9482207, "lng": 80.2041803, "pincode": 600100, "place_id": "ChIJyV8BPLBdUjoRDUpX5IjnxsY", "bank_name": "Axis Bank", "branch_nam": "Axis Bank Branch", "street_id": 875106649, "street_nam": "Pallavaram - Thoraipakkam Road", "category": "Bank Branch" }, "geometry": { "type": "Point", "coordinates": [ 413679.858034552016761, 1431543.98769753286615 ] } },
{ "type": "Feature", "properties": { "fid": 22, "name": "HDFC BANK", "lat": 12.9523424, "lng": 80.207186, "pincode": 600100, "place_id": "ChIJl4h8V8hdUjoR5-MtcXEcNOE", "bank_name": "HDFC Bank", "branch_nam": "HDFC BANK", "street_id": 27630086, "street_nam": "15th Street", "category": "Bank Branch" }, "geometry": { "type": "Point", "coordinates": [ 414007.309704313287511, 1431998.81589336018078 ] } },
{ "type": "Feature", "properties": { "fid": 23, "name": "HDFC Bank", "lat": 12.954427, "lng": 80.211967, "pincode": 600100, "place_id": "ChIJ5VDIf-JdUjoR-y1-tj9nTMo", "bank_name": "HDFC Bank", "branch_nam": "HDFC Bank", "street_id": 1213515278, "street_nam": "Velachery Main Road", "category": "Bank Branch" }, "geometry": { "type": "Point", "coordinates": [ 414526.622121845080983, 1432227.759192188736051 ] } },
{ "type": "Feature", "properties": { "fid": 24, "name": "HDFC Bank Home Loan Branch - Puducherry (Lawspet)", "lat": 12.9545302, "lng": 80.212434, "pincode": 600100, "place_id": "ChIJow3d-J9hUzoRqsk3P9JQpoI", "bank_name": "HDFC Bank", "branch_nam": "HDFC Bank Home Loan Branch - Puducherry (Lawspet)", "street_id": 244466151, "street_nam": "Velachery Main Road", "category": "Bank Branch" }, "geometry": { "type": "Point", "coordinates": [ 414577.312970637460239, 1432239.016479456564412 ] } },
{ "type": "Feature", "properties": { "fid": 25, "name": "City Union Bank Kovilambakkam", "lat": 12.9482048, "lng": 80.1996614, "pincode": 600129, "place_id": "ChIJQ_jm481dUjoRljStToijNtI", "bank_name": "Union Bank of India", "branch_nam": "City Union Bank Kovilambakkam", "street_id": 179254448, "street_nam": "Viduthalai Nagar 10 Street", "category": "Bank Branch" }, "geometry": { "type": "Point", "coordinates": [ 413189.672401781310327, 1431543.759230519877747 ] } },
{ "type": "Feature", "properties": { "fid": 26, "name": "SBI Branch Pallikaranai", "lat": 12.950741, "lng": 80.202116, "pincode": 600100, "place_id": "ChIJs-Bu2jRcUjoRX4yc2Mxyr80", "bank_name": "State Bank of India", "branch_nam": "SBI Branch Pallikaranai", "street_id": 384311370, "street_nam": "Sri Nagar 2nd Street", "category": "Bank Branch" }, "geometry": { "type": "Point", "coordinates": [ 413456.806485398032237, 1431823.419431303627789 ] } },
{ "type": "Feature", "properties": { "fid": 27, "name": "SBI HOME LOAN", "lat": 12.9543251, "lng": 80.1944954, "pincode": 600091, "place_id": "ChIJIzPsan9dUjoRvQrTuvd5_fM", "bank_name": "State Bank of India", "branch_nam": "SBI HOME LOAN", "street_id": 1199697166, "street_nam": "Thanigai Street", "category": "Bank Branch" }, "geometry": { "type": "Point", "coordinates": [ 412631.431446450063959, 1432222.397915031993762 ] } },
{ "type": "Feature", "properties": { "fid": 28, "name": "Bank of Baroda Sannathi Street Mylapore Branch", "lat": 12.9571459, "lng": 80.1950228, "pincode": 600091, "place_id": "ChIJ52wxfSdfUjoROQWVTSoc1Vs", "bank_name": "Bank", "branch_nam": "Bank of Baroda Sannathi Street Mylapore Branch", "street_id": 27442559, "street_nam": "Madipakkam Link Road", "category": "Bank Branch" }, "geometry": { "type": "Point", "coordinates": [ 412689.621704778575804, 1432534.186136594973505 ] } },
{ "type": "Feature", "properties": { "fid": 29, "name": "Federal Bank", "lat": 12.9534644, "lng": 80.2419931, "pincode": 600096, "place_id": "ChIJtWd5wgRdUjoR0wTnJQY5U4A", "bank_name": "Federal Bank", "branch_nam": "Federal Bank", "street_id": 95641750, "street_nam": "Rajiv Gandhi Salai", "category": "Bank Branch" }, "geometry": { "type": "Point", "coordinates": [ 417783.239117791643366, 1432111.449540520552546 ] } },
{ "type": "Feature", "properties": { "fid": 30, "name": "Union Bank of India", "lat": 12.9597241, "lng": 80.2420961, "pincode": 600096, "place_id": "ChIJBQTjAO9dUjoRg71v9aZVZzk", "bank_name": "Union Bank of India", "branch_nam": "Union Bank of India", "street_id": 1434297738, "street_nam": "2nd Main Road", "category": "Bank Branch" }, "geometry": { "type": "Point", "coordinates": [ 417796.464901826810092, 1432803.705596061889082 ] } },
{ "type": "Feature", "properties": { "fid": 31, "name": "City Union Bank Perungudi", "lat": 12.959744, "lng": 80.2423043, "pincode": 600096, "place_id": "ChIJmQ11vFxdUjoRaGlus9Ayl3M", "bank_name": "Union Bank of India", "branch_nam": "City Union Bank Perungudi", "street_id": 1434297738, "street_nam": "2nd Main Road", "category": "Bank Branch" }, "geometry": { "type": "Point", "coordinates": [ 417819.054344642849173, 1432805.839440918760374 ] } },
{ "type": "Feature", "properties": { "fid": 32, "name": "SBI SME Branch Perungudi", "lat": 12.9606, "lng": 80.242336, "pincode": 600096, "place_id": "ChIJq-zS_tBdUjoRjaKyBJIRe3o", "bank_name": "State Bank of India", "branch_nam": "SBI SME Branch Perungudi", "street_id": 183979573, "street_nam": "1st Main Road", "category": "Bank Branch" }, "geometry": { "type": "Point", "coordinates": [ 417822.773541155736893, 1432900.498264625202864 ] } },
{ "type": "Feature", "properties": { "fid": 33, "name": "YES BANK", "lat": 12.9546777, "lng": 80.2423527, "pincode": 600096, "place_id": "ChIJn2DtQFhdUjoR-IoB3nl1Wi4", "bank_name": "Yes Bank", "branch_nam": "YES BANK", "street_id": 1234958753, "street_nam": "Rajiv Gandhi Salai", "category": "Bank Branch" }, "geometry": { "type": "Point", "coordinates": [ 417822.64276023657294, 1432245.51831506867893 ] } },
{ "type": "Feature", "properties": { "fid": 34, "name": "ICICI Bank Chennai - Tidel Park Taramani", "lat": 12.958429, "lng": 80.244194, "pincode": 600096, "place_id": "ChIJs7QQWwZdUjoRgMpriiJ4PWU", "bank_name": "ICICI Bank", "branch_nam": "ICICI Bank Chennai - Tidel Park Taramani", "street_id": 132191277, "street_nam": "Old Mahapalipuram Service Road", "category": "Bank Branch" }, "geometry": { "type": "Point", "coordinates": [ 418023.594908092578407, 1432659.800369867822155 ] } },
{ "type": "Feature", "properties": { "fid": 35, "name": "RBL Bank Ltd - Kottivakkam Branch", "lat": 12.9584395, "lng": 80.2557642, "pincode": 600041, "place_id": "ChIJSbWc3FtdUjoR7aMT2MdVaFw", "bank_name": "RBL Bank", "branch_nam": "RBL Bank Ltd - Kottivakkam Branch", "street_id": 1421526627, "street_nam": "East Coast Road", "category": "Bank Branch" }, "geometry": { "type": "Point", "coordinates": [ 419278.592407070857007, 1432657.277449358487502 ] } },
{ "type": "Feature", "properties": { "fid": 36, "name": "CENTRAL BANK OF INDIA - PERUNGUDI Branch", "lat": 12.9599673, "lng": 80.2433171, "pincode": 600096, "place_id": "ChIJR6Vu3xFdUjoREr9lwVIS-sE", "bank_name": "Central Bank of India", "branch_nam": "CENTRAL BANK OF INDIA - PERUNGUDI Branch", "street_id": 1434297738, "street_nam": "2nd Main Road", "category": "Bank Branch" }, "geometry": { "type": "Point", "coordinates": [ 417928.983266160183121, 1432830.209613217506558 ] } },
{ "type": "Feature", "properties": { "fid": 37, "name": "Punjab National Bank - BNA", "lat": 12.9601055, "lng": 80.2434123, "pincode": 600096, "place_id": "ChIJPapthyZdUjoRONMJe1otSig", "bank_name": "Punjab", "branch_nam": "Punjab National Bank - BNA", "street_id": 1434297738, "street_nam": "2nd Main Road", "category": "Bank Branch" }, "geometry": { "type": "Point", "coordinates": [ 417939.354617934324779, 1432845.463206265121698 ] } },
{ "type": "Feature", "properties": { "fid": 38, "name": "Punjab National Bank", "lat": 12.9601055, "lng": 80.2434123, "pincode": 600096, "place_id": "ChIJQw_-u5ZdUjoRvv-BjTuTSnI", "bank_name": "Punjab", "branch_nam": "Punjab National Bank", "street_id": 1434297738, "street_nam": "2nd Main Road", "category": "Bank Branch" }, "geometry": { "type": "Point", "coordinates": [ 417939.354617934324779, 1432845.463206265121698 ] } },
{ "type": "Feature", "properties": { "fid": 39, "name": "IndusInd Bank", "lat": 12.9601686, "lng": 80.244527, "pincode": 600096, "place_id": "ChIJY89VsxNdUjoRhy8iT5Bw4Bs", "bank_name": "IndusInd Bank", "branch_nam": "IndusInd Bank", "street_id": 1115994190, "street_nam": "Rajiv Gandhi Salai", "category": "Bank Branch" }, "geometry": { "type": "Point", "coordinates": [ 418060.283651630277745, 1432852.083897120086476 ] } },
{ "type": "Feature", "properties": { "fid": 40, "name": "Union Bank of India", "lat": 12.960224, "lng": 80.245334, "pincode": 600096, "place_id": "ChIJO7r_lxFdUjoRgH4hZCL25bw", "bank_name": "Union Bank of India", "branch_nam": "Union Bank of India", "street_id": 389428123, "street_nam": "4th Main road", "category": "Bank Branch" }, "geometry": { "type": "Point", "coordinates": [ 418147.834748397348449, 1432857.952111090300605 ] } },
{ "type": "Feature", "properties": { "fid": 41, "name": "Bank of Baroda Gen Next Perungudi Branch", "lat": 12.9603052, "lng": 80.2453388, "pincode": 600096, "place_id": "ChIJZ3GLlxFdUjoRz_iCmSyhM7Q", "bank_name": "Bank", "branch_nam": "Bank of Baroda Gen Next Perungudi Branch", "street_id": 389428123, "street_nam": "4th Main road", "category": "Bank Branch" }, "geometry": { "type": "Point", "coordinates": [ 418148.381919923762325, 1432866.930853156140074 ] } },
{ "type": "Feature", "properties": { "fid": 42, "name": "Bank of India", "lat": 12.9612, "lng": 80.2462389, "pincode": 600096, "place_id": "ChIJq0eRZb9jUjoRtnEaieZJK7s", "bank_name": "Bank", "branch_nam": "Bank of India", "street_id": 836067691, "street_nam": "பர்மா காலனி 4வது குறுக்கு தெரு", "category": "Bank Branch" }, "geometry": { "type": "Point", "coordinates": [ 418246.305145721824374, 1432965.602622425882146 ] } },
{ "type": "Feature", "properties": { "fid": 43, "name": "HDFC Bank", "lat": 12.961389, "lng": 80.257806, "pincode": 600041, "place_id": "ChIJkySrZmhdUjoRv_2h2rKntkQ", "bank_name": "HDFC Bank", "branch_nam": "HDFC Bank", "street_id": 32937659, "street_nam": "Anna Salai", "category": "Bank Branch" }, "geometry": { "type": "Point", "coordinates": [ 419501.009336139657535, 1432982.831078303046525 ] } },
{ "type": "Feature", "properties": { "fid": 44, "name": "DBS Bank - Branch OMR", "lat": 12.9615713, "lng": 80.2460067, "pincode": 600096, "place_id": "ChIJa3g1a-VdUjoRj5htsMfneI0", "bank_name": "DBS", "branch_nam": "DBS Bank - Branch OMR", "street_id": 836067691, "street_nam": "பர்மா காலனி 4வது குறுக்கு தெரு", "category": "Bank Branch" }, "geometry": { "type": "Point", "coordinates": [ 418221.240394060616381, 1433006.740720563801005 ] } },
{ "type": "Feature", "properties": { "fid": 45, "name": "Union Bank of India", "lat": 12.961622, "lng": 80.2567897, "pincode": 600041, "place_id": "ChIJdz5V-NVdUjoRkXj67vORUUc", "bank_name": "Union Bank of India", "branch_nam": "Union Bank of India", "street_id": 32937659, "street_nam": "Anna Salai", "category": "Bank Branch" }, "geometry": { "type": "Point", "coordinates": [ 419390.849958435632288, 1433008.920075403293595 ] } },
{ "type": "Feature", "properties": { "fid": 46, "name": "INDIAN BANK", "lat": 12.9616406, "lng": 80.2596426, "pincode": 600041, "place_id": "ChIJR9UoBDxdUjoRd0xt0qQmoyQ", "bank_name": "Indian Bank", "branch_nam": "INDIAN BANK", "street_id": 32937660, "street_nam": "1st Main Road", "category": "Bank Branch" }, "geometry": { "type": "Point", "coordinates": [ 419700.299232094432227, 1433010.078486965969205 ] } },
{ "type": "Feature", "properties": { "fid": 47, "name": "Karur Vysya Bank", "lat": 12.9616637, "lng": 80.2565838, "pincode": 600041, "place_id": "ChIJ64Uu0T1dUjoRm3NDpkEIm84", "bank_name": "Karur", "branch_nam": "Karur Vysya Bank", "street_id": 32937659, "street_nam": "Anna Salai", "category": "Bank Branch" }, "geometry": { "type": "Point", "coordinates": [ 419368.530176804284565, 1433013.596849968191236 ] } },
{ "type": "Feature", "properties": { "fid": 48, "name": "Bank of Baroda Madippakkam Chennai Branch", "lat": 12.9623749, "lng": 80.1980002, "pincode": 600091, "place_id": "ChIJHzIG2NxdUjoRaZCb-nEiVIU", "bank_name": "Bank", "branch_nam": "Bank of Baroda Madippakkam Chennai Branch", "street_id": 84099120, "street_nam": "Bajanai Koil Street", "category": "Bank Branch" }, "geometry": { "type": "Point", "coordinates": [ 413014.394604777800851, 1433111.475496262079105 ] } },
{ "type": "Feature", "properties": { "fid": 49, "name": "Indian Overseas Bank", "lat": 12.964663, "lng": 80.196864, "pincode": 600091, "place_id": "ChIJ8RRyb91dUjoRCIIkUqZBLwI", "bank_name": "Indian Bank", "branch_nam": "Indian Overseas Bank", "street_id": 206632259, "street_nam": "Kalyana Kandasamy Koil Street", "category": "Bank Branch" }, "geometry": { "type": "Point", "coordinates": [ 412891.949835895560682, 1433364.916909887921065 ] } },
{ "type": "Feature", "properties": { "fid": 50, "name": "CSB BANK LTD", "lat": 12.9648791, "lng": 80.1953413, "pincode": 600091, "place_id": "ChIJL6BP-RxdUjoR2Y_XOLDnCzU", "bank_name": "CSB", "branch_nam": "CSB BANK LTD", "street_id": 23227994, "street_nam": "Sabari Salai", "category": "Bank Branch" }, "geometry": { "type": "Point", "coordinates": [ 412726.863432411395479, 1433389.336591573664919 ] } },
{ "type": "Feature", "properties": { "fid": 51, "name": "Bank of India", "lat": 12.9649012, "lng": 80.1991358, "pincode": 600091, "place_id": "ChIJa9s6rsJdUjoRa6hsSHt94O4", "bank_name": "Bank", "branch_nam": "Bank of India", "street_id": 27352086, "street_nam": "venkatraman Street", "category": "Bank Branch" }, "geometry": { "type": "Point", "coordinates": [ 413138.446204976702575, 1433390.486932810395956 ] } },
{ "type": "Feature", "properties": { "fid": 52, "name": "Bank of Maharashtra - Madipakkam Branch", "lat": 12.9651141, "lng": 80.1920414, "pincode": 600091, "place_id": "ChIJlyrUvAldUjoRBHGdJkABiKQ", "bank_name": "Bank", "branch_nam": "Bank of Maharashtra - Madipakkam Branch", "street_id": 23227994, "street_nam": "Sabari Salai", "category": "Bank Branch" }, "geometry": { "type": "Point", "coordinates": [ 412369.017672271525953, 1433416.456778373802081 ] } },
{ "type": "Feature", "properties": { "fid": 53, "name": "HDFC bank", "lat": 12.9656124, "lng": 80.1907767, "pincode": 600091, "place_id": "ChIJac1zhOBdUjoRXb9BQpBL1nM", "bank_name": "HDFC Bank", "branch_nam": "HDFC bank", "street_id": 1375805716, "street_nam": "Sabari Salai", "category": "Bank Branch" }, "geometry": { "type": "Point", "coordinates": [ 412232.015027401503175, 1433472.001097774598747 ] } },
{ "type": "Feature", "properties": { "fid": 54, "name": "Tamilnad Mercantile Bank (TMB) - Madipakkam", "lat": 12.9709503, "lng": 80.190679, "pincode": 600061, "place_id": "ChIJVfW6IeJdUjoRUEoNK_7KX4U", "bank_name": "Tamilnad", "branch_nam": "Tamilnad Mercantile Bank (TMB) - Madipakkam", "street_id": 25562280, "street_nam": "விக்னேஷ்வரா நகர் 1வது தெரு", "category": "Bank Branch" }, "geometry": { "type": "Point", "coordinates": [ 412223.289361293544061, 1434062.384823048487306 ] } },
{ "type": "Feature", "properties": { "fid": 55, "name": "City Union Bank Puzhuthivakkam", "lat": 12.9650652, "lng": 80.2044443, "pincode": 600091, "place_id": "ChIJk2LqchFdUjoRvRz0yEDxqrU", "bank_name": "Union Bank of India", "branch_nam": "City Union Bank Puzhuthivakkam", "street_id": 1231011066, "street_nam": "3rd Main Road", "category": "Bank Branch" }, "geometry": { "type": "Point", "coordinates": [ 413714.295060147647746, 1433406.824814338004217 ] } },
{ "type": "Feature", "properties": { "fid": 56, "name": "IndusInd Bank", "lat": 12.965363, "lng": 80.201654, "pincode": 600091, "place_id": "ChIJRbGpOqVdUjoRifP75y1aEDA", "bank_name": "IndusInd Bank", "branch_nam": "IndusInd Bank", "street_id": 1231011066, "street_nam": "3rd Main Road", "category": "Bank Branch" }, "geometry": { "type": "Point", "coordinates": [ 413411.745321824681014, 1433440.704743928508833 ] } },
{ "type": "Feature", "properties": { "fid": 57, "name": "Punjab National Bank - BNA", "lat": 12.965387, "lng": 80.2002294, "pincode": 600091, "place_id": "ChIJf2PQagpdUjoRP9SMOJbcSfI", "bank_name": "Punjab", "branch_nam": "Punjab National Bank - BNA", "street_id": 30598635, "street_nam": "Bazaar Road", "category": "Bank Branch" }, "geometry": { "type": "Point", "coordinates": [ 413257.23306982323993, 1433443.842566856183112 ] } },
{ "type": "Feature", "properties": { "fid": 58, "name": "Punjab National Bank", "lat": 12.9654372, "lng": 80.200366, "pincode": 600091, "place_id": "ChIJ5Ut9nsJdUjoR5byuyU-JIdA", "bank_name": "Punjab", "branch_nam": "Punjab National Bank", "street_id": 30598635, "street_nam": "Bazaar Road", "category": "Bank Branch" }, "geometry": { "type": "Point", "coordinates": [ 413272.066902294405736, 1433449.348069461761042 ] } },
{ "type": "Feature", "properties": { "fid": 59, "name": "ICICI BANK LIMITED-SADASIVAM NAGAR BRANCH", "lat": 12.9636739, "lng": 80.2150305, "pincode": 600091, "place_id": "ChIJZWH3jxZnUjoRGiYaxNtOnV8", "bank_name": "ICICI Bank", "branch_nam": "ICICI BANK LIMITED-SADASIVAM NAGAR BRANCH", "street_id": 1246827595, "street_nam": "Bazaar Main Road", "category": "Bank Branch" }, "geometry": { "type": "Point", "coordinates": [ 414862.063283941301052, 1433249.400089759146795 ] } },
{ "type": "Feature", "properties": { "fid": 60, "name": "Equitas Small Finance bank", "lat": 12.9638822, "lng": 80.2140432, "pincode": 600091, "place_id": "ChIJneDEQvFdUjoR9Eu65Ntw5wY", "bank_name": "Equitas", "branch_nam": "Equitas Small Finance bank", "street_id": 206642422, "street_nam": "Bazaar Main Road", "category": "Bank Branch" }, "geometry": { "type": "Point", "coordinates": [ 414755.045362859906163, 1433272.766458995407447 ] } },
{ "type": "Feature", "properties": { "fid": 61, "name": "Allahabad Bank", "lat": 12.9639041, "lng": 80.2134606, "pincode": 600091, "place_id": "ChIJ3TNMW75dUjoRauBDPTLnin0", "bank_name": "Allahabad", "branch_nam": "Allahabad Bank", "street_id": 206642422, "street_nam": "Bazaar Main Road", "category": "Bank Branch" }, "geometry": { "type": "Point", "coordinates": [ 414691.860374187352136, 1433275.383047070587054 ] } },
{ "type": "Feature", "properties": { "fid": 62, "name": "HDFC Bank", "lat": 12.9645782, "lng": 80.2109914, "pincode": 600091, "place_id": "ChIJgSdH9wZdUjoR0THOBokjA3Y", "bank_name": "HDFC Bank", "branch_nam": "HDFC Bank", "street_id": 27442642, "street_nam": "4th main road", "category": "Bank Branch" }, "geometry": { "type": "Point", "coordinates": [ 414424.265733746637125, 1433350.761573405237868 ] } },
{ "type": "Feature", "properties": { "fid": 63, "name": "Axis Bank Branch", "lat": 12.9646616, "lng": 80.2104845, "pincode": 600091, "place_id": "ChIJmTY8bqddUjoRo-1XCDg-SNU", "bank_name": "Axis Bank", "branch_nam": "Axis Bank Branch", "street_id": 27442642, "street_nam": "4th main road", "category": "Bank Branch" }, "geometry": { "type": "Point", "coordinates": [ 414369.312815336917993, 1433360.155161541886628 ] } },
{ "type": "Feature", "properties": { "fid": 64, "name": "Federal Bank", "lat": 12.9652394, "lng": 80.2061565, "pincode": 600091, "place_id": "ChIJiXusVKddUjoRmUKWIPLEW1Y", "bank_name": "Federal Bank", "branch_nam": "Federal Bank", "street_id": 30598635, "street_nam": "Bazaar Road", "category": "Bank Branch" }, "geometry": { "type": "Point", "coordinates": [ 413900.070362112484872, 1433425.51260119327344 ] } },
{ "type": "Feature", "properties": { "fid": 65, "name": "Canara Bank (formerly Syndicate Bank)", "lat": 12.9654116, "lng": 80.2061442, "pincode": 600091, "place_id": "ChIJgzofWl9dUjoRjllA-ZjIwyg", "bank_name": "Canara Bank", "branch_nam": "Canara Bank (formerly Syndicate Bank)", "street_id": 1112206454, "street_nam": "Bazaar Road", "category": "Bank Branch" }, "geometry": { "type": "Point", "coordinates": [ 413898.795438084751368, 1433444.561302545713261 ] } },
{ "type": "Feature", "properties": { "fid": 66, "name": "Bank Of Baroda", "lat": 12.9725013, "lng": 80.2093815, "pincode": 600091, "place_id": "ChIJDxjpu2ZkUjoRy2VCB1tumBc", "bank_name": "Bank", "branch_nam": "Bank Of Baroda", "street_id": 27319407, "street_nam": "main road", "category": "Bank Branch" }, "geometry": { "type": "Point", "coordinates": [ 414252.359919111535419, 1434227.560838852077723 ] } },
{ "type": "Feature", "properties": { "fid": 67, "name": "CANARA BANK - MADIPAKKAM CHENNAI", "lat": 12.9709761, "lng": 80.1905327, "pincode": 600061, "place_id": "ChIJaUFdUPFdUjoRZTe_-vrmMBs", "bank_name": "Canara Bank", "branch_nam": "CANARA BANK - MADIPAKKAM CHENNAI", "street_id": 25562280, "street_nam": "விக்னேஷ்வரா நகர் 1வது தெரு", "category": "Bank Branch" }, "geometry": { "type": "Point", "coordinates": [ 412207.430162391159683, 1434065.288517967797816 ] } },
{ "type": "Feature", "properties": { "fid": 68, "name": "Indian Bank", "lat": 12.9730222, "lng": 80.1918052, "pincode": 600091, "place_id": "ChIJOVG3l-NdUjoRSaAr29id7ak", "bank_name": "Indian Bank", "branch_nam": "Indian Bank", "street_id": 165642301, "street_nam": "Karian Ponnan Street", "category": "Bank Branch" }, "geometry": { "type": "Point", "coordinates": [ 412346.166830025205854, 1434291.141542914556339 ] } },
{ "type": "Feature", "properties": { "fid": 69, "name": "Bank Of Baroda", "lat": 12.9732736, "lng": 80.1918149, "pincode": 600091, "place_id": "ChIJ-YUemeNdUjoRK9GtkE9qTRs", "bank_name": "Bank", "branch_nam": "Bank Of Baroda", "street_id": 165641248, "street_nam": "Solaiappan Street", "category": "Bank Branch" }, "geometry": { "type": "Point", "coordinates": [ 412347.306969127908815, 1434318.942036983557045 ] } },
{ "type": "Feature", "properties": { "fid": 70, "name": "HDFC Bank", "lat": 12.9739426, "lng": 80.1911249, "pincode": 600061, "place_id": "ChIJhVvA9SJfUjoRBeHYsuONCqA", "bank_name": "HDFC Bank", "branch_nam": "HDFC Bank", "street_id": 857509327, "street_nam": "Vijay Avenue", "category": "Bank Branch" }, "geometry": { "type": "Point", "coordinates": [ 412272.702202091808431, 1434393.167857916094363 ] } },
{ "type": "Feature", "properties": { "fid": 71, "name": "Karur Vysya Bank - Puzhuthivakkam -Bank", "lat": 12.9751447, "lng": 80.1957172, "pincode": 600091, "place_id": "ChIJi-vJgHBdUjoRwkv-npSx7M8", "bank_name": "Karur", "branch_nam": "Karur Vysya Bank - Puzhuthivakkam -Bank", "street_id": 206653805, "street_nam": "Ponnappan Street", "category": "Bank Branch" }, "geometry": { "type": "Point", "coordinates": [ 412771.213082098809537, 1434524.540841654874384 ] } },
{ "type": "Feature", "properties": { "fid": 72, "name": "Bank Of Baroda", "lat": 12.9756612, "lng": 80.1972409, "pincode": 600091, "place_id": "ChIJK6s0Sl9dUjoRdjRdxpTzl8U", "bank_name": "Bank", "branch_nam": "Bank Of Baroda", "street_id": 701271360, "street_nam": "Sairam Street - South", "category": "Bank Branch" }, "geometry": { "type": "Point", "coordinates": [ 412936.65603789157467, 1434581.143182447180152 ] } },
{ "type": "Feature", "properties": { "fid": 73, "name": "ICICI Bank Ltd., Nanganallur", "lat": 12.9811262, "lng": 80.1921319, "pincode": 600061, "place_id": "ChIJM-KIe9VnUjoRmUXnqV_wjcQ", "bank_name": "ICICI Bank", "branch_nam": "ICICI Bank Ltd., Nanganallur", "street_id": 27351938, "street_nam": "Nanganallur 19th Street", "category": "Bank Branch" }, "geometry": { "type": "Point", "coordinates": [ 412384.439689360093325, 1435187.299258875194937 ] } },
{ "type": "Feature", "properties": { "fid": 74, "name": "HDFC Bank", "lat": 12.9617982, "lng": 80.2421498, "pincode": 600096, "place_id": "ChIJjWkgjdBdUjoREr9Y_JbURpY", "bank_name": "HDFC Bank", "branch_nam": "HDFC Bank", "street_id": 183979573, "street_nam": "1st Main Road", "category": "Bank Branch" }, "geometry": { "type": "Point", "coordinates": [ 417802.970133274327964, 1433033.072701888391748 ] } },
{ "type": "Feature", "properties": { "fid": 75, "name": "ICICI Bank", "lat": 12.9631769, "lng": 80.2042027, "pincode": 600091, "place_id": "ChIJzQiLKsJdUjoRoTcQEjo-KO4", "bank_name": "ICICI Bank", "branch_nam": "ICICI Bank", "street_id": 27442631, "street_nam": "6th Main Road", "category": "Bank Branch" }, "geometry": { "type": "Point", "coordinates": [ 413687.438912682351656, 1433198.06881885137409 ] } },
{ "type": "Feature", "properties": { "fid": 76, "name": "Kotak Mahindra Bank", "lat": 12.96408, "lng": 80.25638, "pincode": 600041, "place_id": "ChIJrd1CV_5dUjoRjVzfKp5vTFs", "bank_name": "Kotak Mahindra Bank", "branch_nam": "Kotak Mahindra Bank", "street_id": 32938656, "street_nam": "Periyar Salai", "category": "Bank Branch" }, "geometry": { "type": "Point", "coordinates": [ 419347.202798945654649, 1433280.890329290414229 ] } },
{ "type": "Feature", "properties": { "fid": 77, "name": "CANARA BANK - KOTTIVAKKAM", "lat": 12.9651219, "lng": 80.2564519, "pincode": 600041, "place_id": "ChIJL4ybh_5dUjoRuQSoyjLcPwc", "bank_name": "Canara Bank", "branch_nam": "CANARA BANK - KOTTIVAKKAM", "street_id": 131889967, "street_nam": "East Coast Road", "category": "Bank Branch" }, "geometry": { "type": "Point", "coordinates": [ 419355.336948810494505, 1433396.095891365315765 ] } },
{ "type": "Feature", "properties": { "fid": 78, "name": "ICICI Bank Chennai Palavakkam", "lat": 12.9651291, "lng": 80.2564391, "pincode": 600041, "place_id": "ChIJS9pWKvhdUjoR963pD7W-BmI", "bank_name": "ICICI Bank", "branch_nam": "ICICI Bank Chennai Palavakkam", "street_id": 131889967, "street_nam": "East Coast Road", "category": "Bank Branch" }, "geometry": { "type": "Point", "coordinates": [ 419353.950918549264316, 1433396.896213373867795 ] } },
{ "type": "Feature", "properties": { "fid": 79, "name": "SBI Branch Palavakkam", "lat": 12.966796, "lng": 80.257015, "pincode": 600041, "place_id": "ChIJi-wLLeRdUjoRx_La6d-OPbY", "bank_name": "State Bank of India", "branch_nam": "SBI Branch Palavakkam", "street_id": 32937669, "street_nam": "Burial Ground Road", "category": "Bank Branch" }, "geometry": { "type": "Point", "coordinates": [ 419416.952171513112262, 1433581.064144049538299 ] } },
{ "type": "Feature", "properties": { "fid": 80, "name": "DBS Bank - Kottivakkam Branch", "lat": 12.9682329, "lng": 80.257499, "pincode": 600041, "place_id": "ChIJh-m9iYNdUjoRgFfV6tYJF_k", "bank_name": "DBS", "branch_nam": "DBS Bank - Kottivakkam Branch", "street_id": 30312149, "street_nam": "Senthamarai kannan salaai", "category": "Bank Branch" }, "geometry": { "type": "Point", "coordinates": [ 419469.910898592730518, 1433739.824477841844782 ] } },
{ "type": "Feature", "properties": { "fid": 81, "name": "South Indian Bank - Perungudi Branch", "lat": 12.9617265, "lng": 80.2460148, "pincode": 600096, "place_id": "ChIJIbJz1RNdUjoREUFXh1H32BU", "bank_name": "Indian Bank", "branch_nam": "South Indian Bank - Perungudi Branch", "street_id": 836067691, "street_nam": "பர்மா காலனி 4வது குறுக்கு தெரு", "category": "Bank Branch" }, "geometry": { "type": "Point", "coordinates": [ 418222.169639112078585, 1433023.902405788656324 ] } },
{ "type": "Feature", "properties": { "fid": 82, "name": "RBL Bank Ltd - Perungudi Branch", "lat": 12.961927, "lng": 80.2461394, "pincode": 600096, "place_id": "ChIJ7SVDSotdUjoRitJik_PMQt8", "bank_name": "RBL Bank", "branch_nam": "RBL Bank Ltd - Perungudi Branch", "street_id": 836067691, "street_nam": "பர்மா காலனி 4வது குறுக்கு தெரு", "category": "Bank Branch" }, "geometry": { "type": "Point", "coordinates": [ 418235.750004508532584, 1433046.036727773724124 ] } },
{ "type": "Feature", "properties": { "fid": 83, "name": "ICICI Bank Chennai-Perungudi", "lat": 12.9629205, "lng": 80.2466418, "pincode": 600096, "place_id": "ChIJe30rnWtdUjoRjU5t4QdNG0I", "bank_name": "ICICI Bank", "branch_nam": "ICICI Bank Chennai-Perungudi", "street_id": 132191277, "street_nam": "Old Mahapalipuram Service Road", "category": "Bank Branch" }, "geometry": { "type": "Point", "coordinates": [ 418290.567590361926705, 1433155.751654757652432 ] } },
{ "type": "Feature", "properties": { "fid": 84, "name": "HDFC Bank", "lat": 12.9648497, "lng": 80.2465536, "pincode": 600096, "place_id": "ChIJ058CBxNdUjoRUbbcLe12SRA", "bank_name": "HDFC Bank", "branch_nam": "HDFC Bank", "street_id": 132191984, "street_nam": "Dr MGR Main Road", "category": "Bank Branch" }, "geometry": { "type": "Point", "coordinates": [ 418281.630353709275369, 1433369.1389486619737 ] } },
{ "type": "Feature", "properties": { "fid": 85, "name": "Kotak Mahindra Bank", "lat": 12.9648561, "lng": 80.2469563, "pincode": 600096, "place_id": "ChIJB0l3hwNdUjoREKC8w6CTqs4", "bank_name": "Kotak Mahindra Bank", "branch_nam": "Kotak Mahindra Bank", "street_id": 132191993, "street_nam": "Veera Mamunivar Street", "category": "Bank Branch" }, "geometry": { "type": "Point", "coordinates": [ 418325.311332504206803, 1433369.717916257679462 ] } },
{ "type": "Feature", "properties": { "fid": 86, "name": "SBI Branch Perungudi", "lat": 12.965203, "lng": 80.247407, "pincode": 600096, "place_id": "ChIJYY_QOqBdUjoRlz1Ii_KUL3w", "bank_name": "State Bank of India", "branch_nam": "SBI Branch Perungudi", "street_id": 132191993, "street_nam": "Veera Mamunivar Street", "category": "Bank Branch" }, "geometry": { "type": "Point", "coordinates": [ 418374.309610703028738, 1433407.939061382785439 ] } },
{ "type": "Feature", "properties": { "fid": 87, "name": "Axis Bank Branch", "lat": 12.9666168, "lng": 80.2487147, "pincode": 600096, "place_id": "ChIJ86DWVBNdUjoRUlsbUzFN-cc", "bank_name": "Axis Bank", "branch_nam": "Axis Bank Branch", "street_id": 27368509, "street_nam": "Veeramani Salai", "category": "Bank Branch" }, "geometry": { "type": "Point", "coordinates": [ 418516.609210785420146, 1433563.879975814605132 ] } },
{ "type": "Feature", "properties": { "fid": 88, "name": "CANARA BANK - PERUNGUDI", "lat": 12.9666816, "lng": 80.2483102, "pincode": 600096, "place_id": "ChIJ6bK-bhFdUjoROxPZYqbk5Mc", "bank_name": "Canara Bank", "branch_nam": "CANARA BANK - PERUNGUDI", "street_id": 27368509, "street_nam": "Veeramani Salai", "category": "Bank Branch" }, "geometry": { "type": "Point", "coordinates": [ 418472.756505748373456, 1433571.175631785299629 ] } },
{ "type": "Feature", "properties": { "fid": 89, "name": "HDFC Bank", "lat": 12.9669728, "lng": 80.2476694, "pincode": 600096, "place_id": "ChIJZ3v_oehlUjoRD6ANNp5ZOOk", "bank_name": "HDFC Bank", "branch_nam": "HDFC Bank", "street_id": 132506145, "street_nam": "Karpaga Vinayagar Street", "category": "Bank Branch" }, "geometry": { "type": "Point", "coordinates": [ 418403.347495736321434, 1433603.585479613393545 ] } },
{ "type": "Feature", "properties": { "fid": 90, "name": "IDBI Bank Perungudi", "lat": 12.9689154, "lng": 80.2486448, "pincode": 600096, "place_id": "ChIJ4fEsox9bUjoRJAkiw8TNeVw", "bank_name": "IDBI Bank", "branch_nam": "IDBI Bank Perungudi", "street_id": 27368759, "street_nam": "Thiruvalluvar Street", "category": "Bank Branch" }, "geometry": { "type": "Point", "coordinates": [ 418509.77568156842608, 1433818.114962365711108 ] } },
{ "type": "Feature", "properties": { "fid": 91, "name": "Indian Overseas Bank", "lat": 12.9689466, "lng": 80.2455805, "pincode": 600096, "place_id": "ChIJA_BYGG1dUjoR6qd8CZnLA-U", "bank_name": "Indian Bank", "branch_nam": "Indian Overseas Bank", "street_id": 132082665, "street_nam": "Govindasany Nagar 2nd strret", "category": "Bank Branch" }, "geometry": { "type": "Point", "coordinates": [ 418177.421727097127587, 1433822.545712041901425 ] } },
{ "type": "Feature", "properties": { "fid": 92, "name": "ICICI Bank Ltd.,Chennai-Perungudi", "lat": 12.9692679, "lng": 80.2493496, "pincode": 600096, "place_id": "ChIJ6wp7QWVdUjoRNA5_WswMtqw", "bank_name": "ICICI Bank", "branch_nam": "ICICI Bank Ltd.,Chennai-Perungudi", "street_id": 132191277, "street_nam": "Old Mahapalipuram Service Road", "category": "Bank Branch" }, "geometry": { "type": "Point", "coordinates": [ 418586.335231461620424, 1433856.874662050977349 ] } },
{ "type": "Feature", "properties": { "fid": 93, "name": "Axis Bank Branch", "lat": 12.9700534, "lng": 80.2440207, "pincode": 600096, "place_id": "ChIJdZ8aL1lnUjoRT8wEb5hjJxY", "bank_name": "Axis Bank", "branch_nam": "Axis Bank Branch", "street_id": 23762120, "street_nam": "Dr MGR Main Road", "category": "Bank Branch" }, "geometry": { "type": "Point", "coordinates": [ 418008.603075151273515, 1433945.452391835395247 ] } },
{ "type": "Feature", "properties": { "fid": 94, "name": "Axis Bank Loan Centre", "lat": 12.9715991, "lng": 80.2489169, "pincode": 600096, "place_id": "ChIJpTtzRPZdUjoR9vJOw48-5t0", "bank_name": "Axis Bank", "branch_nam": "Axis Bank Loan Centre", "street_id": 27839200, "street_nam": "1st Cross", "category": "Bank Branch" }, "geometry": { "type": "Point", "coordinates": [ 418540.161851615877822, 1434114.830802103038877 ] } },
{ "type": "Feature", "properties": { "fid": 95, "name": "Indian Bank", "lat": 12.9775263, "lng": 80.2432551, "pincode": 600113, "place_id": "ChIJl_b-4W9dUjoRu2-Ae8jtSfg", "bank_name": "Indian Bank", "branch_nam": "Indian Bank", "street_id": 428736716, "street_nam": "Taramani Link Road", "category": "Bank Branch" }, "geometry": { "type": "Point", "coordinates": [ 417928.01464652112918, 1434772.161899605067447 ] } },
{ "type": "Feature", "properties": { "fid": 96, "name": "Canara Bank", "lat": 12.9720819, "lng": 80.2496926, "pincode": 600041, "place_id": "ChIJea4v7GtdUjoRigv9xPCF2qQ", "bank_name": "Canara Bank", "branch_nam": "Canara Bank", "street_id": 1229235741, "street_nam": "OMR Service Road", "category": "Bank Branch" }, "geometry": { "type": "Point", "coordinates": [ 418624.452874450071249, 1434167.978412084281445 ] } },
{ "type": "Feature", "properties": { "fid": 97, "name": "HDFC Bank", "lat": 12.9722153, "lng": 80.25049, "pincode": 600096, "place_id": "ChIJExqgaKFdUjoRXo7SDZvTfmk", "bank_name": "HDFC Bank", "branch_nam": "HDFC Bank", "street_id": 129614123, "street_nam": "Gandhi Street", "category": "Bank Branch" }, "geometry": { "type": "Point", "coordinates": [ 418710.983703500241973, 1434182.477609273046255 ] } },
{ "type": "Feature", "properties": { "fid": 98, "name": "IndusInd Bank", "lat": 12.972821, "lng": 80.257938, "pincode": 600041, "place_id": "ChIJ9yNMZUFdUjoRBTlztxzszs4", "bank_name": "IndusInd Bank", "branch_nam": "IndusInd Bank", "street_id": 1213197473, "street_nam": "Natesan Colony", "category": "Bank Branch" }, "geometry": { "type": "Point", "coordinates": [ 419519.001442144915927, 1434247.104116460308433 ] } },
{ "type": "Feature", "properties": { "fid": 99, "name": "Equitas Small Finance Bank", "lat": 12.9729509, "lng": 80.2583589, "pincode": 600041, "place_id": "ChIJoSJnMe9dUjoR2wcomCisPKY", "bank_name": "Equitas", "branch_nam": "Equitas Small Finance Bank", "street_id": 30282008, "street_nam": "Karpagambal Nagar 2nd Street", "category": "Bank Branch" }, "geometry": { "type": "Point", "coordinates": [ 419564.694585171819199, 1434261.337628784589469 ] } },
{ "type": "Feature", "properties": { "fid": 100, "name": "City Union Bank Kottivakkam", "lat": 12.972982, "lng": 80.2585509, "pincode": 600041, "place_id": "ChIJGTB02ENdUjoReOuVf99J9Dw", "bank_name": "Union Bank of India", "branch_nam": "City Union Bank Kottivakkam", "street_id": 30282008, "street_nam": "Karpagambal Nagar 2nd Street", "category": "Bank Branch" }, "geometry": { "type": "Point", "coordinates": [ 419585.529150683025364, 1434264.716605960857123 ] } },
{ "type": "Feature", "properties": { "fid": 101, "name": "HDFC Bank", "lat": 12.973597, "lng": 80.2586957, "pincode": 600041, "place_id": "ChIJI17PRcXO5zsRUBjeRhr5SbE", "bank_name": "HDFC Bank", "branch_nam": "HDFC Bank", "street_id": 30282009, "street_nam": "Karpagambal Nagar 1st Main Road", "category": "Bank Branch" }, "geometry": { "type": "Point", "coordinates": [ 419601.431915098393802, 1434332.686530757462606 ] } },
{ "type": "Feature", "properties": { "fid": 102, "name": "Union Bank Of India", "lat": 12.9736215, "lng": 80.2580735, "pincode": 600041, "place_id": "ChIJ____P1ddUjoRFfBqii_VPPM", "bank_name": "Union Bank of India", "branch_nam": "Union Bank Of India", "street_id": 30282009, "street_nam": "Karpagambal Nagar 1st Main Road", "category": "Bank Branch" }, "geometry": { "type": "Point", "coordinates": [ 419533.955334040219896, 1434335.592205940978602 ] } },
{ "type": "Feature", "properties": { "fid": 103, "name": "YES BANK", "lat": 12.9737866, "lng": 80.2506322, "pincode": 600041, "place_id": "ChIJzc-8245dUjoRCcV9SgMZyY8", "bank_name": "Yes Bank", "branch_nam": "YES BANK", "street_id": 132191277, "street_nam": "Old Mahapalipuram Service Road", "category": "Bank Branch" }, "geometry": { "type": "Point", "coordinates": [ 418726.917232794279698, 1434356.209564693737775 ] } },
{ "type": "Feature", "properties": { "fid": 104, "name": "Axis Bank Branch", "lat": 12.9747007, "lng": 80.2586667, "pincode": 600041, "place_id": "ChIJnR8vpD9dUjoRp8w5MQ5xOBc", "bank_name": "Axis Bank", "branch_nam": "Axis Bank Branch", "street_id": 30281986, "street_nam": "Kannappa Nagar 1st Main Road", "category": "Bank Branch" }, "geometry": { "type": "Point", "coordinates": [ 419598.641144666529726, 1434454.758700954727829 ] } },
{ "type": "Feature", "properties": { "fid": 105, "name": "Canara Bank", "lat": 12.9752938, "lng": 80.253799, "pincode": 600041, "place_id": "ChIJM37e2mldUjoRjoBth86KHNw", "bank_name": "Canara Bank", "branch_nam": "Canara Bank", "street_id": 132066088, "street_nam": "Avvai Nagar Main Road", "category": "Bank Branch" }, "geometry": { "type": "Point", "coordinates": [ 419070.879257865599357, 1434521.891139491694048 ] } },
{ "type": "Feature", "properties": { "fid": 106, "name": "IDFC FIRST Bank - Chennai, Kottivakkam Branch", "lat": 12.9762781, "lng": 80.2512893, "pincode": 600041, "place_id": "ChIJTb2K_mhdUjoRF8a27Urdtt8", "bank_name": "IDFC", "branch_nam": "IDFC FIRST Bank - Chennai, Kottivakkam Branch", "street_id": 132191277, "street_nam": "Old Mahapalipuram Service Road", "category": "Bank Branch" }, "geometry": { "type": "Point", "coordinates": [ 418798.995533893583342, 1434631.546745619503781 ] } },
{ "type": "Feature", "properties": { "fid": 107, "name": "ICICI Bank Ltd, Chennai - Kottivakkam OMR", "lat": 12.9770987, "lng": 80.2515781, "pincode": 600041, "place_id": "ChIJudXrhpZdUjoRhwy6TSqa6G4", "bank_name": "ICICI Bank", "branch_nam": "ICICI Bank Ltd, Chennai - Kottivakkam OMR", "street_id": 30281958, "street_nam": "Ramalinga Nagar", "category": "Bank Branch" }, "geometry": { "type": "Point", "coordinates": [ 418830.585008329479024, 1434722.208756887121126 ] } },
{ "type": "Feature", "properties": { "fid": 108, "name": "SBI OMR Branch", "lat": 12.9800901, "lng": 80.2509194, "pincode": 600041, "place_id": "ChIJeRvZOWZdUjoRgaiu0OyydQ8", "bank_name": "State Bank of India", "branch_nam": "SBI OMR Branch", "street_id": 30609728, "street_nam": "Taramani Link Road", "category": "Bank Branch" }, "geometry": { "type": "Point", "coordinates": [ 418760.11407556431368, 1435053.251134157180786 ] } },
{ "type": "Feature", "properties": { "fid": 109, "name": "Karur Vysya Bank - Chennai-Perungudi", "lat": 12.96498, "lng": 80.24698, "pincode": 600096, "place_id": "ChIJR2vZKEldUjoRp-gVCORYRJs", "bank_name": "Karur", "branch_nam": "Karur Vysya Bank - Chennai-Perungudi", "street_id": 132191993, "street_nam": "Veera Mamunivar Street", "category": "Bank Branch" }, "geometry": { "type": "Point", "coordinates": [ 418327.92236124916235, 1433383.413004898931831 ] } },
{ "type": "Feature", "properties": { "fid": 110, "name": "Woori Bank", "lat": 12.9654957, "lng": 80.2471345, "pincode": 600096, "place_id": "ChIJT7-5ExNdUjoRjGbiB3WXb2g", "bank_name": "Woori", "branch_nam": "Woori Bank", "street_id": 132191993, "street_nam": "Veera Mamunivar Street", "category": "Bank Branch" }, "geometry": { "type": "Point", "coordinates": [ 418344.848357609705999, 1433440.397220845799893 ] } },
{ "type": "Feature", "properties": { "fid": 111, "name": "Bank of India", "lat": 12.9654595, "lng": 80.2568473, "pincode": 600041, "place_id": "ChIJK0Yjrz9dUjoRTOnUjsqTS4I", "bank_name": "Bank", "branch_nam": "Bank of India", "street_id": 1421526627, "street_nam": "East Coast Road", "category": "Bank Branch" }, "geometry": { "type": "Point", "coordinates": [ 419398.332569223828614, 1433433.307705468963832 ] } }
]
}
